{"last_updated":1528825905,"ttl":7,"data":{"stations":[{"station_id":1,"name":"1 - Largo da Batata","lat":-23.5667969,"lon":-46.6936916,"address":"Av. Brigadeiro Faria Lima","capacity":55,"rental_methods":["KEY","CREDITCARD","TRANSITCARD","PHONE"],"is_valet_station":false},{"station_id":3,"name":"3 - CPTM Pinheiros","lat":-23.5664009,"lon":-46.7012455,"address":"R. Gilberto Sabino","capacity":15,"rental_methods":["KEY","TRANSITCARD","PHONE"],"is_valet_station":false},{"station_id":4,"name":"4 - Rua Diogo Moreira","lat":-23.568866,"lon":-46.692149,"address":"4 - Rua Diogo Moreira","capacity":23,"rental_methods":["KEY","CREDITCARD","TRANSITCARD","PHONE"],"is_valet_station":false},{"station_id":5,"name":"5 - Rua Butantã","lat":-23.5696313,"lon":-46.6980166,"address":"Travessa da R. Butantã","capacity":15,"rental_methods":["KEY","TRANSITCARD","PHONE"],"is_valet_station":false},{"station_id":6,"name":"6 - Rua Manduri","lat":-23.572252,"lon":-46.690362,"address":"6 - Rua Manduri","capacity":19,"rental_methods":["KEY","CREDITCARD","TRANSITCARD","PHONE"],"is_valet_station":false},{"station_id":7,"name":"7 - Praça Joaquim Roberto","lat":-23.5725665,"lon":-46.6936955,"address":"Av. Rebouças","capacity":19,"rental_methods":["KEY","TRANSITCARD","PHONE"],"is_valet_station":false},{"station_id":10,"name":"10 - Rua Campo Verde","lat":-23.575567,"lon":-46.6907281,"address":"Rua Campo Verde","capacity":15,"rental_methods":["KEY","TRANSITCARD","PHONE"],"is_valet_station":false},{"station_id":11,"name":"11 - Praça Faria Lima","lat":-23.5654929,"lon":-46.6942395,"address":"Rua Cardeal Arcoverde / esquina com Av. Brigadeiro Faria Lima","capacity":19,"rental_methods":["KEY","CREDITCARD","TRANSITCARD","PHONE"],"is_valet_station":false},{"station_id":12,"name":"12 - Largo de Batata II","lat":-23.566151,"lon":-46.693992,"address":"12 - Largo de Batata II","capacity":65,"rental_methods":["KEY","TRANSITCARD","PHONE"],"is_valet_station":false},{"station_id":13,"name":"13 - Esporte Clube Pinheiros Funcionários","lat":-23.5795465,"lon":-46.6906742,"address":"R. Angelina Maffei Vita","capacity":23,"rental_methods":["KEY","TRANSITCARD","PHONE"],"is_valet_station":false},{"station_id":14,"name":"14 - Casa Brasileira","lat":-23.5803111,"lon":-46.6851625,"address":"14 - Casa Brasileira","capacity":17,"rental_methods":["KEY","CREDITCARD","TRANSITCARD","PHONE"],"is_valet_station":false},{"station_id":15,"name":"15 - Rua Prof. Artur Ramos","lat":-23.5824487,"lon":-46.686837,"address":"Rua Professor Artur Ramos","capacity":19,"rental_methods":["KEY","TRANSITCARD","PHONE"],"is_valet_station":false},{"station_id":16,"name":"16 - Esporte Clube Pinheiros Boliche","lat":-23.5825155,"lon":-46.6912684,"address":"R. Hans Nobiling","capacity":19,"rental_methods":["KEY","TRANSITCARD","PHONE"],"is_valet_station":false},{"station_id":17,"name":"17 - Rua José Gonçalves de Oliveira","lat":-23.5842942,"lon":-46.6828306,"address":"R. José Gonçalves de Oliveira","capacity":23,"rental_methods":["KEY","TRANSITCARD","PHONE"],"is_valet_station":false},{"station_id":18,"name":"18 - Itaú Faria Lima","lat":-23.586612,"lon":-46.683715,"address":"18 - Itaú Faria Lima","capacity":23,"rental_methods":["KEY","CREDITCARD","TRANSITCARD","PHONE"],"is_valet_station":false},{"station_id":19,"name":"19 - Av. Dr. Cardoso de Melo","lat":-23.5957151,"lon":-46.6906164,"address":"R. Funchal","capacity":15,"rental_methods":["KEY","TRANSITCARD","PHONE"],"is_valet_station":false},{"station_id":20,"name":"20 - CPTM Cidade Jardim","lat":-23.585076,"lon":-46.690391,"address":"20 - CPTM Cidade Jardim","capacity":19,"rental_methods":["KEY","CREDITCARD","TRANSITCARD","PHONE"],"is_valet_station":false},{"station_id":21,"name":"21 - Parque do Povo portão 1","lat":-23.588913,"lon":-46.6880465,"address":"Av. Henrique Chamma","capacity":23,"rental_methods":["KEY","TRANSITCARD","PHONE"],"is_valet_station":false},{"station_id":22,"name":"22 - Rua Leopoldo Couto","lat":-23.58921,"lon":-46.68402,"address":"Rua Leopoldo Couto de Magalhães Junior","capacity":15,"rental_methods":["KEY","TRANSITCARD","PHONE"],"is_valet_station":false},{"station_id":23,"name":"23 - CPTM Vila Olímpia","lat":-23.5938149,"lon":-46.6912616,"address":"Rua Gomes de Carvalho","capacity":23,"rental_methods":["KEY","TRANSITCARD","PHONE"],"is_valet_station":false},{"station_id":24,"name":"24 - Rua Funchal","lat":-23.5928476,"lon":-46.688406,"address":"Rua Funchal","capacity":23,"rental_methods":["KEY","TRANSITCARD","PHONE"],"is_valet_station":false},{"station_id":25,"name":"25 - Rua Helena","lat":-23.5927912,"lon":-46.6843087,"address":"Rua Helena","capacity":23,"rental_methods":["KEY","TRANSITCARD","PHONE"],"is_valet_station":false},{"station_id":26,"name":"26 - Praça Pierre Germayel","lat":-23.595589,"lon":-46.683312,"address":"26 - Praça Pierre Germayel","capacity":23,"rental_methods":["KEY","CREDITCARD","TRANSITCARD","PHONE"],"is_valet_station":false},{"station_id":27,"name":"27 - Rua Min. Jesuíno Cardoso","lat":-23.5924959,"lon":-46.6813105,"address":"Rua Ministro Jesuíno Cardoso","capacity":31,"rental_methods":["KEY","TRANSITCARD","PHONE"],"is_valet_station":false},{"station_id":28,"name":"28 - Rua Comendador Miguel Calfat","lat":-23.59335,"lon":-46.67702,"address":"Rua Comendador Miguel Calfat","capacity":15,"rental_methods":["KEY","TRANSITCARD","PHONE"],"is_valet_station":false},{"station_id":29,"name":"29 - Rua João Franco","lat":-23.5902904,"lon":-46.6783446,"address":"Rua João Franco","capacity":15,"rental_methods":["KEY","TRANSITCARD","PHONE"],"is_valet_station":false},{"station_id":30,"name":"30 - Bandeira Paulista","lat":-23.5902625,"lon":-46.6738357,"address":"Rua Bandeira Paulista em frente ao número 1237 / esquina com Rua Dr. Alceu de Campos Rodrigues","capacity":19,"rental_methods":["KEY","TRANSITCARD","PHONE"],"is_valet_station":false},{"station_id":35,"name":"35 - Rua Benedito Lapin","lat":-23.5872155,"lon":-46.672994,"address":"Rua Benedito Lapin em frente ao número 81 / esquina com Rua Dr. Renato Paes de Barros","capacity":23,"rental_methods":["KEY","TRANSITCARD","PHONE"],"is_valet_station":false},{"station_id":36,"name":"36 - E.E. Aristides de Castro","lat":-23.5867259,"lon":-46.676238,"address":"Rua Urussuí","capacity":23,"rental_methods":["KEY","TRANSITCARD","PHONE"],"is_valet_station":false},{"station_id":38,"name":"38 - Viradouro","lat":-23.5851341,"lon":-46.6804979,"address":"Rua Viradouro","capacity":19,"rental_methods":["KEY","TRANSITCARD","PHONE"],"is_valet_station":false},{"station_id":40,"name":"40 - Brasília","lat":-23.5835317,"lon":-46.672088,"address":"Rua Brasília","capacity":11,"rental_methods":["KEY","TRANSITCARD","PHONE"],"is_valet_station":false},{"station_id":41,"name":"41 - Paróquia São Gabriel","lat":-23.5817803,"lon":-46.6696627,"address":"41 - Paróquia São Gabriel","capacity":15,"rental_methods":["KEY","TRANSITCARD","PHONE"],"is_valet_station":false},{"station_id":42,"name":"42 - Hotel Unique","lat":-23.582269,"lon":-46.667158,"address":"42 - Hotel Unique","capacity":23,"rental_methods":["KEY","TRANSITCARD","PHONE"],"is_valet_station":false},{"station_id":45,"name":"45 - Marechal Bitencourt","lat":-23.5788352,"lon":-46.6634529,"address":"45 - Marechal Bitencourt","capacity":23,"rental_methods":["KEY","TRANSITCARD","PHONE"],"is_valet_station":false},{"station_id":46,"name":"46 - Rua General Fonseca Telles","lat":-23.5793044,"lon":-46.6666822,"address":"46 - Rua General Fonseca Telles","capacity":11,"rental_methods":["KEY","TRANSITCARD","PHONE"],"is_valet_station":false},{"station_id":47,"name":"47 - Suzano","lat":-23.578703,"lon":-46.67057,"address":"47 - Suzano","capacity":11,"rental_methods":["KEY","TRANSITCARD","PHONE"],"is_valet_station":false},{"station_id":48,"name":"48 - Itacema","lat":-23.5794711,"lon":-46.6732094,"address":"Rua Itacema, 239","post_code":"04530050","capacity":15,"rental_methods":["KEY","TRANSITCARD","PHONE"],"is_valet_station":false},{"station_id":49,"name":"49 - Tapinás","lat":-23.5814511,"lon":-46.6778542,"address":"Rua Tapinás / esquina com Rua Pedroso Alvarenga","capacity":15,"rental_methods":["KEY","TRANSITCARD","PHONE"],"is_valet_station":false},{"station_id":50,"name":"50 - Rua Professor Carlos de Carvalho","lat":-23.5832623,"lon":-46.6802221,"address":"50 - Rua Professor Carlos de Carvalho","capacity":17,"rental_methods":["KEY","TRANSITCARD","PHONE"],"is_valet_station":false},{"station_id":51,"name":"51 - Praça Luiz Delben Junior","lat":-23.577003,"lon":-46.680223,"address":"51 - Praça Luiz Delben Junior","capacity":11,"rental_methods":["KEY","TRANSITCARD","PHONE"],"is_valet_station":false},{"station_id":53,"name":"53 - Professor Roberto Hörtinger","lat":-23.5724063,"lon":-46.6846988,"address":"53 - Professor Roberto Hörtinger","capacity":11,"rental_methods":["KEY","TRANSITCARD","PHONE"],"is_valet_station":false},{"station_id":54,"name":"54 - Colégio Madre Alix","lat":-23.57288,"lon":-46.681527,"address":"Colégio Madre Alix","capacity":11,"rental_methods":["KEY","TRANSITCARD","PHONE"],"is_valet_station":false},{"station_id":55,"name":"55 - Jacupiranga","lat":-23.569899,"lon":-46.6805486,"address":"55 - Jacupiranga","capacity":11,"rental_methods":["KEY","TRANSITCARD","PHONE"],"is_valet_station":false},{"station_id":56,"name":"56 - Atlântica","lat":-23.568591,"lon":-46.677829,"address":"Atlântica","capacity":11,"rental_methods":["KEY","CREDITCARD","TRANSITCARD","PHONE"],"is_valet_station":false},{"station_id":57,"name":"57 - Groelândia","lat":-23.5707391,"lon":-46.6759698,"address":"57 - Groelândia","capacity":11,"rental_methods":["KEY","TRANSITCARD","PHONE"],"is_valet_station":false},{"station_id":58,"name":"58 - Mube","lat":-23.573617,"lon":-46.6771251,"address":"58 - Mube","capacity":11,"rental_methods":["KEY","TRANSITCARD","PHONE"],"is_valet_station":false},{"station_id":60,"name":"60 - Clube Harmonia","lat":-23.5738552,"lon":-46.6694306,"address":"60 - Clube Harmonia","capacity":11,"rental_methods":["KEY","TRANSITCARD","PHONE"],"is_valet_station":false},{"station_id":61,"name":"61 - Venezuela","lat":-23.5677153,"lon":-46.6735725,"address":"61 - Venezuela","capacity":11,"rental_methods":["KEY","TRANSITCARD","PHONE"],"is_valet_station":false},{"station_id":62,"name":"62 - Equador","lat":-23.5713455,"lon":-46.6703347,"address":"62 - Equador","capacity":11,"rental_methods":["KEY","TRANSITCARD","PHONE"],"is_valet_station":false},{"station_id":63,"name":"63 - Club Athletico Paulistano","lat":-23.568485,"lon":-46.669122,"address":"63 - Club Athletico Paulistano","capacity":11,"rental_methods":["KEY","TRANSITCARD","PHONE"],"is_valet_station":false},{"station_id":64,"name":"64 - Maestro Elias Lobo","lat":-23.575943,"lon":-46.668121,"address":"Rua - Maestro Elias Lobo, em frente ao número 691 / esquina com Rua Espéria","capacity":11,"rental_methods":["KEY","TRANSITCARD","PHONE"],"is_valet_station":false},{"station_id":65,"name":"65 - Rua Dr. João Pinheiro","lat":-23.5753293,"lon":-46.6643586,"address":"65 - Rua Dr. João Pinheiro, oposto ao número 507","capacity":11,"rental_methods":["KEY","TRANSITCARD","PHONE"],"is_valet_station":false},{"station_id":66,"name":"66 - Praça Domingos Delascio","lat":-23.5754073,"lon":-46.6616822,"address":"66 - Praça Domingos Delascio","capacity":15,"rental_methods":["KEY","TRANSITCARD","PHONE"],"is_valet_station":false},{"station_id":67,"name":"67 - Maestro Chiafarelli","lat":-23.5732836,"lon":-46.6628549,"address":"67 - Maestro Chiafarelli","capacity":15,"rental_methods":["KEY","TRANSITCARD","PHONE"],"is_valet_station":false},{"station_id":68,"name":"68 - Praça Nicolau Scarpa","lat":-23.570446,"lon":-46.664754,"address":"68 - Praça Nicolau Scarpa","capacity":15,"rental_methods":["KEY","TRANSITCARD","PHONE"],"is_valet_station":false},{"station_id":69,"name":"69 - Oscar Freire","lat":-23.565809,"lon":-46.665977,"address":"Oscar Freire","capacity":11,"rental_methods":["KEY","TRANSITCARD","PHONE"],"is_valet_station":false},{"station_id":70,"name":"70 - Alameda Casa Branca","lat":-23.56878,"lon":-46.66275,"address":"Alameda Casa Branca","capacity":15,"rental_methods":["KEY","TRANSITCARD","PHONE"],"is_valet_station":false},{"station_id":72,"name":"72 - Queluz","lat":-23.572689,"lon":-46.658629,"address":"72 - Queluz","capacity":15,"rental_methods":["KEY","TRANSITCARD","PHONE"],"is_valet_station":false},{"station_id":77,"name":"77 - Alameda j. Eugênio de Lima","lat":-23.57046,"lon":-46.655306,"address":"Alameda j. Eugênio de Lima","capacity":11,"rental_methods":["KEY","TRANSITCARD","PHONE"],"is_valet_station":false},{"station_id":80,"name":"80 - Praça Alexandre de Gusmão","lat":-23.564341,"lon":-46.657046,"address":"Praça Alexandre de Gusmão","capacity":17,"rental_methods":["KEY","CREDITCARD","TRANSITCARD","PHONE"],"is_valet_station":false},{"station_id":101,"name":"101 -  Praça Gen. Gentil Falcão","lat":-23.604952,"lon":-46.695012,"address":"101 -  Praça Gen. Gentil Falcão","capacity":11,"rental_methods":["KEY","TRANSITCARD","PHONE"],"is_valet_station":false},{"station_id":102,"name":"102 - Rua James Watt","lat":-23.611846,"lon":-46.694956,"address":"102 - Rua James Watt","capacity":23,"rental_methods":["KEY","CREDITCARD","TRANSITCARD","PHONE"],"is_valet_station":false},{"station_id":103,"name":"103 - Rua Hans Oerted","lat":-23.608902,"lon":-46.694772,"address":"103 - Rua Hans Oerted","capacity":23,"rental_methods":["KEY","CREDITCARD","TRANSITCARD","PHONE"],"is_valet_station":false},{"station_id":105,"name":"105 - Praça João Duram Alonso","lat":-23.6024438,"lon":-46.6924783,"address":"105 - Praça João Duram Alonso","capacity":19,"rental_methods":["KEY","CREDITCARD","TRANSITCARD","PHONE"],"is_valet_station":false},{"station_id":106,"name":"106 - Rua Florida","lat":-23.609066,"lon":-46.6915033,"address":"106 - Rua Florida","capacity":15,"rental_methods":["KEY","TRANSITCARD","PHONE"],"is_valet_station":false},{"station_id":107,"name":"107 - Rua Indiana","lat":-23.607565,"lon":-46.688398,"address":"107 - Rua Indiana","capacity":11,"rental_methods":["KEY","TRANSITCARD","PHONE"],"is_valet_station":false},{"station_id":113,"name":"113 - Rua Andrade Pertence","lat":-23.603846,"lon":-46.677037,"address":"Rua Andrade Pertence","capacity":11,"rental_methods":["KEY","TRANSITCARD","PHONE"],"is_valet_station":false},{"station_id":114,"name":"114 - Rua Alvorada","lat":-23.601327,"lon":-46.681552,"address":"114 - Rua Alvorada","capacity":15,"rental_methods":["KEY","TRANSITCARD","PHONE"],"is_valet_station":false},{"station_id":115,"name":"115 - Praça Procopio Ferreira","lat":-23.6001071,"lon":-46.6894299,"address":"Praça Procopio Ferreira","capacity":19,"rental_methods":["KEY","CREDITCARD","TRANSITCARD","PHONE"],"is_valet_station":false},{"station_id":116,"name":"116 - Praça Dr. Francisco Patti","lat":-23.599341,"lon":-46.687151,"address":"116 - Praça Dr. Francisco Patti","capacity":15,"rental_methods":["KEY","TRANSITCARD","PHONE"],"is_valet_station":false},{"station_id":118,"name":"118 - Rua Júlio Diniz","lat":-23.59775,"lon":-46.684073,"address":"118 - Rua Júlio Diniz","capacity":15,"rental_methods":["KEY","TRANSITCARD","PHONE"],"is_valet_station":false},{"station_id":119,"name":"119 - Rua Quatá","lat":-23.597089,"lon":-46.680457,"address":"119 - Rua Quatá","capacity":11,"rental_methods":["KEY","CREDITCARD","TRANSITCARD","PHONE"],"is_valet_station":false},{"station_id":120,"name":"120 - Rua Gomes de Carvalho","lat":-23.599571,"lon":-46.679913,"address":"Rua Gomes de Carvalho","capacity":15,"rental_methods":["KEY","TRANSITCARD","PHONE"],"is_valet_station":false},{"station_id":121,"name":"121 - Insper","lat":-23.597702,"lon":-46.677695,"address":"121 - Insper","capacity":23,"rental_methods":["KEY","CREDITCARD","TRANSITCARD","PHONE"],"is_valet_station":false},{"station_id":122,"name":"122 - Rua Baluarte","lat":-23.6011147,"lon":-46.6753273,"address":"122 - Rua Baluarte","capacity":15,"rental_methods":["KEY","TRANSITCARD","PHONE"],"is_valet_station":false},{"station_id":123,"name":"123 - Rua Egito","lat":-23.5943765,"lon":-46.6739414,"address":"123 - Rua Egito","capacity":15,"rental_methods":["KEY","TRANSITCARD","PHONE"],"is_valet_station":false},{"station_id":201,"name":"201 - Metro Sumaré","lat":-23.5517205,"lon":-46.6780394,"address":"201 - Metro Sumaré","capacity":27,"rental_methods":["KEY","TRANSITCARD","PHONE"],"is_valet_station":false},{"station_id":202,"name":"202 - Arruda Alvim","lat":-23.5551642,"lon":-46.6741127,"address":"202 - Arruda Alvim","capacity":23,"rental_methods":["KEY","TRANSITCARD","PHONE"],"is_valet_station":false},{"station_id":211,"name":"211 - Capote Valente","lat":-23.5599793,"lon":-46.6738799,"address":"211 - Capote Valente","capacity":15,"rental_methods":["KEY","TRANSITCARD","PHONE"],"is_valet_station":false},{"station_id":214,"name":"214 - João Moura","lat":-23.5571033,"lon":-46.6797917,"address":"214 - João Moura","capacity":15,"rental_methods":["KEY","TRANSITCARD","PHONE"],"is_valet_station":false},{"station_id":216,"name":"216 - João Moura 328","lat":-23.562089,"lon":-46.676471,"address":"216 - João Moura 328","capacity":15,"rental_methods":["KEY","TRANSITCARD","PHONE"],"is_valet_station":false},{"station_id":217,"name":"217 - Alameda Gabriel","lat":-23.5651717,"lon":-46.676435,"address":"217 - Alameda Gabriel","capacity":19,"rental_methods":["KEY","TRANSITCARD","PHONE"],"is_valet_station":false},{"station_id":218,"name":"218 - Cemitério Cardeal","lat":-23.55856,"lon":-46.683137,"address":"218 - Cemitério Cardeal","capacity":15,"rental_methods":["KEY","TRANSITCARD","PHONE"],"is_valet_station":false},{"station_id":219,"name":"219 - Rua Joaquim Antunes","lat":-23.561729,"lon":-46.683453,"address":"Rua Joaquim Antunes","capacity":15,"rental_methods":["KEY","CREDITCARD","TRANSITCARD","PHONE"],"is_valet_station":false},{"station_id":221,"name":"221 - Sampaio Vidal 27","lat":-23.566676,"lon":-46.680333,"address":"221 - Sampaio Vidal 27","capacity":15,"rental_methods":["KEY","TRANSITCARD","PHONE"],"is_valet_station":false},{"station_id":222,"name":"222 - Rua Horácio Lane","lat":-23.5587611,"lon":-46.6878893,"address":"222 - Rua Horácio Lane","capacity":15,"rental_methods":["KEY","TRANSITCARD","PHONE"],"is_valet_station":false},{"station_id":225,"name":"225 - Sampaio Vidal 530","lat":-23.568758,"lon":-46.684279,"address":"225 - Sampaio Vidal 530","capacity":15,"rental_methods":["KEY","TRANSITCARD","PHONE"],"is_valet_station":false},{"station_id":226,"name":"226 - Fradique Coutinho 941","lat":-23.559206,"lon":-46.689287,"address":"226 - Fradique Coutinho 941","capacity":15,"rental_methods":["KEY","TRANSITCARD","PHONE"],"is_valet_station":false},{"station_id":229,"name":"229 - Arthur de Azevedo","lat":-23.566128,"lon":-46.68761,"address":"Arthur de Azevedo","capacity":11,"rental_methods":["KEY","CREDITCARD","TRANSITCARD","PHONE"],"is_valet_station":false},{"station_id":230,"name":"230 - Rua Mariano Correia","lat":-23.570132,"lon":-46.686392,"address":"230 - Rua Mariano Correia","capacity":15,"rental_methods":["KEY","TRANSITCARD","PHONE"],"is_valet_station":false},{"station_id":231,"name":"231 - Instituto Tomie Ohtake","lat":-23.5614362,"lon":-46.695446,"address":"231 - Instituto Tomie Ohtake","capacity":11,"rental_methods":["KEY","TRANSITCARD","PHONE"],"is_valet_station":false},{"station_id":232,"name":"232 - Sumidouro","lat":-23.5652407,"lon":-46.6955286,"address":"232 - Sumidouro","capacity":15,"rental_methods":["KEY","TRANSITCARD","PHONE"],"is_valet_station":false},{"station_id":233,"name":"233 - Paraopeba","lat":-23.564243,"lon":-46.6993368,"address":"233 - Paraopeba","capacity":15,"rental_methods":["KEY","TRANSITCARD","PHONE"],"is_valet_station":false},{"station_id":234,"name":"234 - Praça Roquete Pinto","lat":-23.5589217,"lon":-46.6994292,"address":"234 - Praça Roquete Pinto","capacity":15,"rental_methods":["KEY","TRANSITCARD","PHONE"],"is_valet_station":false},{"station_id":235,"name":"235 - CETESB","lat":-23.560217,"lon":-46.700815,"address":"235 - CETESB","capacity":17,"rental_methods":["KEY","CREDITCARD","TRANSITCARD","PHONE"],"is_valet_station":false},{"station_id":236,"name":"236 - Praça Ernami Braga","lat":-23.556791,"lon":-46.70212,"address":"praça ernami Braga","capacity":11,"rental_methods":["KEY","TRANSITCARD","PHONE"],"is_valet_station":false},{"station_id":237,"name":"237 - Professor Muniz","lat":-23.5588032,"lon":-46.7035936,"address":"237 - Professor Muniz","capacity":15,"rental_methods":["KEY","TRANSITCARD","PHONE"],"is_valet_station":false},{"station_id":238,"name":"238 - Avenida dos Semaneiros","lat":-23.5552497,"lon":-46.7056093,"address":"238 - Avenida dos Semaneiros","capacity":15,"rental_methods":["KEY","TRANSITCARD","PHONE"],"is_valet_station":false},{"station_id":239,"name":"239 - Avenida Antônio Batuira","lat":-23.5584938,"lon":-46.7067852,"address":"239 - Avenida Antônio Batuira","capacity":15,"rental_methods":["KEY","TRANSITCARD","PHONE"],"is_valet_station":false},{"station_id":240,"name":"240 - Praça Panamericana","lat":-23.5542011,"lon":-46.707958,"address":"240 - Praça Panamericana","capacity":23,"rental_methods":["KEY","TRANSITCARD","PHONE"],"is_valet_station":false},{"station_id":241,"name":"241 - CPTM Cidade Universitária","lat":-23.556746,"lon":-46.710985,"address":"241 - CPTM Cidade Universitária","capacity":23,"rental_methods":["KEY","TRANSITCARD","PHONE"],"is_valet_station":false}]}}